City_ID,City,Cloudiness,Country,Date,Humidity,Lat,Lng,Max Temp,Wind Speed
0,gotsu,75,JP,1538643600,94,35.01,132.22,68.0,2.24
1,butaritari,68,KI,1538645968,100,3.07,172.79,85.56,8.41
2,kantabanji,36,IN,1538645969,62,20.47,82.92,90.33,5.28
3,alofi,44,NU,1538643600,83,-19.06,-169.92,75.2,10.29
4,qaanaaq,8,GL,1538645969,100,77.48,-69.36,15.81,10.65
5,kuminskiy,76,RU,1538645969,67,58.67,66.57,55.5,7.63
6,punta arenas,75,CL,1538643600,81,-53.16,-70.91,42.8,13.87
7,berdigestyakh,80,RU,1538645970,67,62.1,126.7,39.03,5.95
8,rikitea,24,PF,1538645970,100,-23.12,-134.97,68.46,12.55
9,talnakh,92,RU,1538645970,89,69.49,88.39,34.17,19.48
10,hermanus,0,ZA,1538645971,43,-34.42,19.24,69.0,3.71
11,lata,8,IN,1538645971,78,30.78,78.62,58.74,1.14
12,lompoc,90,US,1538644260,93,34.64,-120.46,64.94,3.6
13,atuona,0,PF,1538645971,100,-9.8,-139.03,79.17,14.67
14,puerto ayora,100,EC,1538645972,100,-0.74,-90.35,69.9,13.67
15,severo-kurilsk,56,RU,1538645972,96,50.68,156.12,46.77,23.06
16,bluff,20,AU,1538645972,32,-23.58,149.07,75.66,5.61
17,arlit,20,NE,1538645973,25,18.74,7.39,95.64,4.5
18,berlevag,75,NO,1538643000,100,70.86,29.09,39.2,27.51
19,dali,68,CN,1538645973,85,25.6,100.24,63.24,2.15
20,vaini,36,IN,1538645974,99,15.34,74.49,79.26,2.71
21,san quintin,75,PH,1538643600,69,17.54,120.52,82.4,6.93
22,port alfred,0,ZA,1538645974,85,-33.59,26.89,65.04,2.04
23,pingshan,56,CN,1538645974,86,28.83,104.35,67.29,3.94
24,dikson,80,RU,1538645975,100,73.51,80.55,37.86,21.72
25,norsup,64,VU,1538645975,90,-16.07,167.38,75.03,6.06
26,codrington,80,AU,1538645975,82,-28.95,153.24,64.32,3.38
27,mackay,20,CA,1538643600,92,53.65,-115.58,24.8,2.24
28,hofn,75,IS,1538643600,75,64.25,-15.21,44.6,11.41
29,albany,90,US,1538644380,93,42.65,-73.75,57.02,4.16
30,upernavik,12,GL,1538645976,100,72.79,-56.15,28.14,5.17
31,oksfjord,75,NO,1538644800,100,70.24,22.35,37.4,1.12
32,guerrero negro,0,MX,1538645977,100,27.97,-114.04,64.77,8.3
33,diego de almagro,80,CL,1538645977,91,-26.39,-70.05,55.23,2.26
34,altamont,0,CA,1538644500,100,49.4,-98.5,30.2,9.17
35,clyde river,90,CA,1538644320,100,70.47,-68.59,15.8,2.24
36,harlingen,20,US,1538644500,90,26.19,-97.7,78.98,3.36
37,ilulissat,90,GL,1538643000,92,69.22,-51.1,28.4,10.29
38,saint george,75,GR,1538644800,60,39.45,22.34,73.4,5.82
39,harper,75,US,1538644500,88,30.3,-99.24,75.92,5.82
40,busselton,92,AU,1538645979,90,-33.64,115.35,65.67,12.77
41,salalah,20,OM,1538643000,48,17.01,54.1,87.8,10.29
42,new norfolk,75,AU,1538643600,62,-42.78,147.06,51.8,6.93
43,shache,0,CN,1538645685,23,38.42,77.24,79.62,4.72
44,ushuaia,75,AR,1538643600,59,-54.81,-68.31,37.4,17.22
45,port macquarie,90,AU,1538643600,82,-31.43,152.91,64.4,2.24
46,brae,75,GB,1538644800,100,60.4,-1.35,55.4,27.51
47,carlos chagas,0,BR,1538645980,94,-17.7,-40.76,68.28,3.38
48,ivolginsk,90,RU,1538643600,74,51.75,107.28,37.4,13.42
49,saint-philippe,90,CA,1538644500,87,45.36,-73.48,57.2,17.22
50,sokoni,0,CD,1538645981,28,-12.89,28.78,87.9,7.4
51,roros,0,NO,1538644800,87,62.57,11.38,32.0,1.12
52,isangel,36,VU,1538645981,100,-19.55,169.27,73.41,7.96
53,nanortalik,0,GL,1538645982,95,60.14,-45.24,34.98,18.03
54,chuy,24,UY,1538645982,79,-33.69,-53.46,52.89,14.0
55,yumen,8,CN,1538645982,33,40.29,97.04,60.18,6.06
56,namli,0,IN,1538645982,56,23.46,75.06,91.95,5.73
57,avarua,40,CK,1538643600,60,-21.21,-159.78,71.6,13.87
58,kaeo,0,NZ,1538645983,90,-35.1,173.78,53.16,6.73
59,luau,12,CD,1538645983,37,-10.7,22.23,89.16,1.81
60,hobart,75,AU,1538643600,62,-42.88,147.33,51.8,6.93
61,kodiak,1,US,1538643180,74,39.95,-94.76,53.96,14.99
62,provideniya,88,RU,1538645984,98,64.42,-173.23,46.32,25.64
63,grimbergen,20,BE,1538645100,67,50.94,4.36,60.8,9.17
64,victoria,75,BN,1538643600,79,5.28,115.24,87.8,4.7
65,varhaug,75,NO,1538644800,93,58.61,5.65,53.6,10.29
66,geraldton,90,CA,1538643600,80,49.72,-86.95,33.8,20.8
67,innisfail,90,CA,1538643600,86,52.02,-113.95,26.6,5.82
68,briancon,0,FR,1538645986,66,44.9,6.65,48.12,1.81
69,aksu,0,KZ,1538643600,40,52.04,76.93,66.2,11.18
70,jamestown,0,AU,1538645743,57,-33.21,138.6,54.51,10.87
71,tasiilaq,88,GL,1538643000,100,65.61,-37.64,32.0,3.36
72,kapaa,1,US,1538643360,76,22.08,-159.32,78.08,13.87
73,port elizabeth,90,US,1538644800,100,39.31,-74.98,64.94,3.49
74,cape town,0,ZA,1538643600,35,-33.93,18.42,71.6,3.36
75,kargasok,76,RU,1538645988,56,59.06,80.87,54.51,7.96
76,tuktoyaktuk,20,CA,1538645988,100,69.44,-133.03,25.71,16.69
77,kalawit,48,PH,1538645988,84,7.91,122.53,82.5,2.26
78,santa helena de goias,56,BR,1538645989,96,-17.81,-50.6,67.29,5.17
79,longyearbyen,75,NO,1538644800,74,78.22,15.63,28.4,9.17
80,faya,20,SA,1538643600,18,18.39,42.45,82.4,8.05
81,korem,0,ET,1538645989,46,12.51,39.52,75.03,3.49
82,tutoia,0,BR,1538645972,87,-2.76,-42.27,76.56,13.78
83,airai,80,TL,1538645990,53,-8.93,125.41,80.79,1.36
84,bubaque,40,GW,1538643600,65,11.28,-15.83,80.6,8.05
85,faanui,12,PF,1538645991,100,-16.48,-151.75,78.9,20.83
86,karratha,0,AU,1538645991,19,-20.74,116.85,93.75,14.0
87,jawhar,0,IN,1538645991,68,19.91,73.23,91.23,2.71
88,buchanan,75,LR,1538643600,83,5.88,-10.05,80.6,5.82
89,nemuro,20,JP,1538643600,76,43.32,145.57,53.6,2.24
90,hithadhoo,56,MV,1538645992,100,-0.6,73.08,82.86,19.71
91,barrow,0,AR,1538645992,83,-38.31,-60.23,36.96,5.28
92,agirish,88,RU,1538645901,89,61.92,63.02,46.5,5.84
93,poum,75,MK,1538643600,36,41.28,20.71,60.8,14.99
94,beckley,90,US,1538644500,97,37.78,-81.19,64.94,2.37
95,klaksvik,75,FO,1538645100,75,62.23,-6.59,46.4,13.87
96,zyryanka,80,RU,1538645993,91,65.73,150.89,31.2,5.5
97,kambove,12,CD,1538645993,32,-10.88,26.6,86.55,7.18
98,mataura,88,NZ,1538645994,95,-46.19,168.86,41.91,3.15
99,lorengau,20,PG,1538645994,100,-2.02,147.27,83.94,4.5
100,omboue,92,GA,1538645994,100,-1.57,9.26,77.46,12.33
101,narsaq,75,GL,1538643000,63,60.91,-46.05,30.2,4.38
102,mahebourg,40,MU,1538643600,54,-20.41,57.7,78.8,13.87
103,pevek,56,RU,1538645995,100,69.7,170.27,38.85,4.05
104,normandin,90,CA,1538643600,81,48.84,-72.53,51.8,14.99
105,ancud,0,CL,1538645996,81,-41.87,-73.83,33.63,5.39
106,grindavik,75,IS,1538643600,80,63.84,-22.43,42.8,20.8
107,rafraf,40,TN,1538643600,73,37.19,10.18,71.6,9.17
108,nikolskoye,90,RU,1538643600,69,59.7,30.79,39.2,13.42
109,grand gaube,40,MU,1538643600,54,-20.01,57.66,78.8,13.87
110,bambous virieux,40,MU,1538643600,54,-20.34,57.76,78.8,13.87
111,lebu,20,ET,1538640000,33,8.96,38.73,71.6,6.93
112,gwadar,0,PK,1538645997,59,25.12,62.33,92.31,8.3
113,okha,0,RU,1538645998,63,53.59,142.95,50.37,10.54
114,manicore,0,BR,1538645998,94,-5.81,-61.3,74.58,2.04
115,vanavara,0,RU,1538645998,45,60.35,102.28,40.65,5.28
116,vao,32,EE,1538645999,79,59.1,26.19,42.0,12.1
117,fairbanks,1,US,1538643480,15,64.84,-147.72,39.2,10.29
118,iracoubo,0,GF,1538645999,90,5.48,-53.21,76.56,5.17
119,bredasdorp,0,ZA,1538643600,49,-34.53,20.04,69.8,17.22
120,souillac,0,FR,1538645400,59,45.6,-0.6,66.2,11.41
121,aba,36,NG,1538646000,95,5.11,7.36,81.96,8.41
122,santa vitoria do palmar,24,BR,1538645955,79,-33.52,-53.37,52.89,14.0
123,esperance,20,TT,1538643600,94,10.24,-61.45,78.8,4.7
124,san ramon,56,NI,1538646001,96,12.92,-85.84,66.84,1.92
125,kahului,1,US,1538643360,81,20.89,-156.47,75.02,3.36
126,yellowknife,75,CA,1538643600,67,62.45,-114.38,21.2,4.7
127,constitucion,0,MX,1538646001,79,23.99,-104.67,50.64,2.93
128,svetlogorsk,76,RU,1538643600,30,53.14,59.15,69.8,17.9
129,la ronge,5,CA,1538643600,92,55.1,-105.3,19.4,2.24
130,axim,44,GH,1538646003,95,4.87,-2.24,78.99,9.08
131,muravlenko,80,RU,1538646003,88,63.79,74.5,46.68,9.42
132,fort nelson,75,CA,1538643600,58,58.81,-122.69,30.2,5.82
133,kuruman,0,ZA,1538646003,33,-27.46,23.43,64.59,18.03
134,nyurba,64,RU,1538645857,70,63.29,118.35,40.47,4.61
135,hobyo,32,SO,1538646004,81,5.35,48.53,83.13,12.21
136,vila,0,IT,1538644800,59,45.18,8.4,66.2,5.82
137,nador,0,MA,1538643600,56,35.17,-2.93,73.4,8.05
138,rivadavia,44,AR,1538646004,46,-31.53,-68.59,46.14,5.17
139,tulum,40,MX,1538642520,88,20.21,-87.46,78.8,4.7
140,inirida,68,CO,1538646005,96,3.87,-67.92,74.04,2.04
141,kangaba,8,ML,1538646005,90,11.94,-8.41,81.15,4.61
142,meulaboh,92,ID,1538646006,100,4.14,96.13,77.91,4.27
143,hambantota,44,LK,1538646006,100,6.12,81.12,81.51,12.55
144,kencong,8,ID,1538646006,31,-7.78,112.24,91.59,6.29
145,mar del plata,24,AR,1538645710,74,-46.43,-67.52,40.38,6.85
146,ostrovnoy,0,RU,1538646007,99,68.05,39.51,35.43,12.44
147,lumeje,8,AO,1538646007,32,-11.56,20.78,90.15,1.92
148,oranjemund,0,ZA,1538646007,66,-28.55,16.43,67.02,16.35
149,hilo,90,US,1538643360,93,19.71,-155.08,75.02,4.7
150,tabou,48,CI,1538646008,100,4.42,-7.36,77.19,10.42
151,oistins,40,BB,1538643600,83,13.07,-59.53,80.6,11.41
152,beyneu,64,KZ,1538646008,19,45.32,55.19,83.94,7.18
153,newcastle,44,ZA,1538645930,98,-27.76,29.92,47.04,4.94
154,mackenzie,1,CA,1538643600,62,55.34,-123.09,24.8,2.37
155,cururupu,0,BR,1538646009,87,-1.82,-44.87,76.29,6.96
156,port hardy,40,CA,1538643600,93,50.7,-127.42,37.4,4.7
157,am timan,0,TD,1538646010,89,11.04,20.28,84.66,4.94
158,artyom,0,RU,1538643600,72,43.36,132.19,62.6,4.47
159,belle fourche,1,US,1538644500,86,44.67,-103.85,30.2,3.36
160,marsaxlokk,40,MT,1538642700,61,35.84,14.54,77.0,12.75
161,hirara,75,JP,1538643600,100,24.8,125.28,77.0,26.4
162,los llanos de aridane,0,ES,1538645400,65,28.66,-17.92,77.0,5.82
163,nueva londres,68,PY,1538646011,93,-25.4,-56.55,65.04,5.39
164,kozachi laheri,0,UA,1538646011,65,46.71,32.99,57.57,16.02
165,saint-augustin,0,FR,1538645400,63,44.83,-0.61,64.4,8.05
166,khatanga,80,RU,1538646012,85,71.98,102.47,33.0,9.75
167,talara,76,PE,1538645873,91,-4.58,-81.27,63.6,5.84
168,moron,92,VE,1538646012,96,10.49,-68.2,70.62,2.37
169,sao jose da coroa grande,92,BR,1538646013,94,-8.9,-35.15,73.32,3.6
170,westport,75,IE,1538645400,100,53.8,-9.52,53.6,11.41
171,ambilobe,12,MG,1538646013,63,-13.19,49.05,80.97,7.4
172,wadena,0,CA,1538646013,77,51.95,-103.8,15.36,3.38
173,meiganga,20,CM,1538646014,94,6.52,14.29,72.87,3.15
174,zhifang,0,CN,1538643600,24,30.35,114.31,82.4,6.71
175,saldanha,0,PT,1538646014,51,41.42,-6.55,61.17,3.71
176,mitu,8,IR,1538646014,19,36.2,46.09,76.2,3.38
177,beloha,0,MG,1538646015,40,-25.17,45.06,85.29,4.61
178,finschhafen,100,PG,1538646015,100,-6.6,147.85,73.41,2.37
179,petropavlovskoye,0,RU,1538643600,70,46.79,142.5,44.6,6.71
180,cherskiy,92,RU,1538646015,89,68.75,161.3,35.79,7.96
181,labuhan,32,ID,1538646016,59,-2.54,115.51,86.01,3.38
182,nizhniy kuranakh,92,RU,1538646016,88,58.84,125.49,37.32,2.48
183,taguatinga,75,BR,1538643600,88,-15.83,-48.06,68.0,4.7
184,opunake,20,NZ,1538646016,100,-39.45,173.86,51.81,12.88
185,leningradskiy,24,RU,1538646017,91,69.38,178.42,37.59,7.4
186,valparaiso,90,US,1538644500,88,41.47,-87.06,75.2,14.99
187,iqaluit,90,CA,1538643600,100,63.75,-68.52,32.0,16.11
188,cockburn town,44,TC,1538646017,100,21.46,-71.14,81.69,12.21
189,ust-karsk,48,RU,1538646018,43,52.71,118.82,62.16,4.5
190,harsin,0,IR,1538643600,9,34.27,47.59,82.4,11.41
191,zhanaozen,0,KZ,1538646018,21,43.35,52.85,87.54,4.94
192,copiapo,90,CL,1538643600,82,-27.37,-70.33,55.4,6.93
193,san ignacio,0,CL,1538643600,87,-36.8,-72.03,42.8,13.87
194,wenceslau braz,36,BR,1538646019,94,-23.87,-49.8,62.88,5.5
195,castro,0,CL,1538646020,100,-42.48,-73.76,33.81,5.73
196,sisimiut,68,GL,1538646020,98,66.94,-53.67,25.71,2.15
197,saskylakh,88,RU,1538646020,89,71.97,114.09,30.21,11.77
198,ucluelet,44,CA,1538646020,92,48.94,-125.55,38.13,2.48
199,thompson,90,CA,1538643600,58,55.74,-97.86,24.8,11.41
200,san carlos de bariloche,0,AR,1538643600,74,-41.13,-71.31,28.4,8.05
201,georgetown,20,GY,1538643600,94,6.8,-58.16,73.4,2.24
202,karangampel,0,ID,1538646022,92,-6.46,108.44,85.29,10.98
203,ponta do sol,36,BR,1538646022,90,-20.63,-46.0,62.16,2.26
204,lufilufi,92,WS,1538646022,98,-13.87,-171.6,82.95,22.39
205,pindiga,8,NG,1538646023,73,9.98,10.93,85.47,9.64
206,broome,40,GB,1538645220,82,52.47,1.45,59.0,8.05
207,hudiksvall,24,SE,1538646023,100,61.73,17.1,41.91,4.38
208,sao joao da barra,20,BR,1538644500,94,-21.64,-41.05,73.4,3.36
209,tamiahua,12,MX,1538646024,100,21.28,-97.45,76.2,6.17
210,kruisfontein,0,ZA,1538646024,74,-34.0,24.73,65.22,7.29
211,carnarvon,0,ZA,1538646024,18,-30.97,22.13,60.45,12.55
212,shahrud,32,IR,1538646025,34,36.42,54.97,75.03,3.6
213,george town,75,MY,1538643600,70,5.42,100.33,87.8,4.7
214,maceio,20,BR,1538643600,88,-9.67,-35.74,73.4,2.24
215,yenagoa,64,NG,1538646025,94,4.92,6.26,80.97,6.73
216,betanzos,0,ES,1538645400,60,43.28,-8.21,71.6,1.12
217,san patricio,36,PY,1538646026,90,-26.98,-56.83,60.54,5.28
218,ornskoldsvik,0,SE,1538644800,64,63.29,18.72,39.2,4.7
219,kavieng,36,PG,1538646026,100,-2.57,150.8,83.49,8.63
220,mehamn,75,NO,1538643000,69,71.03,27.85,39.2,18.34
221,chifeng,0,CN,1538646027,28,42.27,118.96,64.23,6.73
222,pimenta bueno,32,BR,1538646027,98,-11.68,-61.19,71.07,2.15
223,rosarito,92,CO,1538646027,100,4.91,-75.23,60.45,0.81
224,uyovu,24,TZ,1538646028,56,-3.28,31.53,80.61,6.17
225,camacha,20,PT,1538643600,83,33.08,-16.33,71.6,10.29
226,kitimat,5,CA,1538643600,74,54.02,-128.69,28.4,3.36
227,kiknur,80,RU,1538646029,86,57.3,47.21,48.84,13.78
228,kassala,68,SD,1538646029,30,15.45,36.38,95.19,4.05
229,caravelas,88,BR,1538646029,99,-17.73,-39.27,78.18,16.35
230,port-gentil,75,GA,1538643600,83,-0.72,8.78,80.6,10.29
231,tiksi,32,RU,1538646030,89,71.64,128.87,23.73,2.93
232,touros,76,BR,1538645731,87,-5.2,-35.46,78.09,12.21
233,karaikkudi,92,IN,1538646030,100,10.07,78.78,74.76,6.06
234,antofagasta,90,CL,1538643600,67,-23.65,-70.4,60.8,8.05
235,eydhafushi,80,MV,1538646030,100,5.1,73.07,80.61,27.54
236,arraial do cabo,0,BR,1538643600,94,-22.97,-42.02,75.2,9.17
237,armidale,100,AU,1538646031,96,-30.51,151.67,53.07,2.93
238,nalut,0,LY,1538646031,33,31.86,10.98,74.49,8.86
239,mogadishu,75,SO,1538643600,66,2.04,45.34,84.2,14.99
240,maraa,24,BR,1538645993,87,-1.83,-65.37,77.28,6.06
241,visby,40,SE,1538644800,75,57.64,18.3,46.4,9.17
242,mizan teferi,24,ET,1538646032,79,6.99,35.58,73.77,2.15
243,araouane,0,ML,1538646032,30,18.9,-3.53,85.11,7.63
244,freeport,56,BS,1538646030,100,26.54,-78.7,81.06,15.79
245,saint-francois,75,FR,1538645400,93,46.42,3.91,53.6,8.05
246,cooma,92,AU,1538646033,99,-36.24,149.13,46.95,6.62
247,kavaratti,44,IN,1538646033,100,10.57,72.64,83.94,5.73
248,luderitz,0,NA,1538646034,65,-26.65,15.16,69.09,19.93
249,pacific grove,90,US,1538644320,86,36.62,-121.92,62.6,3.27
250,east london,0,ZA,1538643600,52,-33.02,27.91,68.0,8.05
251,ullapool,92,GB,1538646034,99,57.9,-5.16,53.79,20.71
252,puri,8,ID,1538646035,31,-7.54,112.45,91.59,6.29
253,gumdag,0,TM,1538646035,43,39.2,54.59,85.11,6.29
254,kysyl-syr,88,RU,1538646035,78,63.9,122.77,38.31,6.51
255,rio gallegos,0,AR,1538643600,75,-51.62,-69.22,42.8,11.41
256,orzhytsya,44,UA,1538646035,70,49.79,32.7,50.46,21.72
257,lernapat,0,AM,1538643600,28,40.82,44.39,71.6,2.24
258,chilca,40,PE,1538643600,65,-13.22,-72.34,44.6,0.47
259,nueve de julio,44,AR,1538646036,46,-31.67,-68.39,46.14,5.17
260,noumea,90,NC,1538643600,88,-22.28,166.46,68.0,8.05
261,komsomolskiy,92,RU,1538646037,100,67.55,63.78,42.81,15.9
262,banda aceh,76,ID,1538646037,100,5.56,95.32,77.46,2.71
263,buala,92,SB,1538646037,95,-8.15,159.59,80.79,5.5
264,spasskoye,36,RU,1538646037,87,55.86,45.7,48.84,15.01
265,peniche,0,PT,1538643600,27,39.36,-9.38,73.4,1.12
266,sistranda,75,NO,1538644800,81,63.73,8.83,42.8,13.87
267,chokurdakh,88,RU,1538646038,95,70.62,147.9,29.49,7.96
268,sitka,36,US,1538646039,88,37.17,-99.65,66.93,22.17
269,hervey bay,0,AU,1538646039,90,-25.3,152.85,69.99,9.19
270,taltal,44,CL,1538646039,99,-25.41,-70.49,50.46,0.92
271,yuzhnouralsk,32,RU,1538646039,41,54.44,61.27,64.41,11.65
272,minab,20,IR,1538643600,63,27.15,57.07,95.0,11.41
273,cabedelo,75,BR,1538643600,83,-6.97,-34.84,77.0,4.7
274,pokhara,0,NP,1538646040,73,28.21,83.99,67.47,2.26
275,velyka oleksandrivka,8,UA,1538646040,67,47.32,33.3,55.59,16.13
276,ulladulla,90,AU,1538643600,100,-35.36,150.48,55.4,13.87
277,malindi,8,KE,1538646041,80,-3.22,40.12,82.23,10.54
278,pointe-noire,90,CG,1538643600,83,-4.8,11.85,78.8,9.17
279,naryan-mar,20,RU,1538646042,100,67.67,53.09,41.91,7.74
280,gulf gate estates,75,US,1538644500,88,27.26,-82.51,78.98,9.17
281,coatzacoalcos,92,MX,1538646042,100,18.14,-94.45,71.88,3.83
282,anekal,75,IN,1538643600,94,12.71,77.7,71.6,10.29
283,pisco,88,PE,1538643600,88,-13.71,-76.2,62.6,4.7
284,cayenne,20,GF,1538643600,100,4.94,-52.33,73.4,1.12
285,necochea,0,AR,1538646043,99,-38.55,-58.74,41.28,8.41
286,gao,12,ML,1538646043,48,16.28,-0.04,87.09,4.5
287,jacareacanga,0,BR,1538646044,96,-6.22,-57.76,74.76,2.15
288,san cristobal,90,EC,1538643600,87,-0.39,-78.55,51.8,2.24
289,farafangana,44,MG,1538646044,100,-22.82,47.83,73.41,9.64
290,canutama,8,BR,1538645816,95,-6.53,-64.38,73.95,2.26
291,chelyabinsk,20,RU,1538643600,34,55.16,61.4,64.4,8.95
292,nuevitas,20,CU,1538643000,94,21.55,-77.27,73.4,4.7
293,voi,0,KE,1538646045,48,-3.4,38.57,82.05,7.07
294,port lincoln,0,AU,1538646045,92,-34.72,135.86,55.5,13.44
295,montrose,90,AU,1538643600,66,-37.81,145.34,55.4,14.99
296,san felipe,24,CL,1538643600,47,-32.75,-70.73,46.4,2.24
297,ixtapa,75,MX,1538642940,100,20.71,-105.21,80.6,4.7
298,saint-andre-avellin,40,CA,1538643600,93,45.72,-75.07,55.4,11.41
299,bratsk,75,RU,1538643600,56,56.15,101.63,41.0,11.18
300,matay,0,EG,1538646047,44,28.42,30.79,88.62,11.99
301,amapa,75,HN,1538643660,94,15.09,-87.97,75.2,1.81
302,tautira,20,PF,1538643600,69,-17.73,-149.15,73.4,4.7
303,lagos,75,NG,1538643600,88,6.46,3.39,80.6,2.24
304,tarquinia,20,IT,1538644800,46,42.25,11.76,73.4,10.29
305,viedma,0,AR,1538646048,78,-40.81,-62.99,41.37,10.2
306,shimoda,75,JP,1538641260,64,34.7,138.93,71.6,10.29
307,gillette,1,US,1538643180,16,44.29,-105.5,35.06,9.17
308,yukamenskoye,92,RU,1538646049,97,57.89,52.24,55.41,12.44
309,tungor,0,RU,1538646050,63,53.39,142.95,50.37,10.54
310,gejiu,68,CN,1538646050,76,23.36,103.16,65.94,2.82
311,qandala,0,SO,1538646050,49,11.47,49.87,86.91,4.05
312,saravan,20,AM,1538643600,21,39.72,45.65,80.6,4.7
313,ust-nera,64,RU,1538646051,84,64.57,143.24,19.23,2.04
314,saint-pierre,0,FR,1538645400,71,48.95,4.24,60.8,5.82
315,lanigan,20,CA,1538646051,76,51.85,-105.03,17.16,2.93
316,adrar,0,DZ,1538643600,27,27.87,-0.29,77.0,17.22
317,khartoum,0,SD,1538643600,24,15.59,32.54,100.4,4.7
318,tumaco,92,CO,1538646052,93,1.8,-78.82,75.57,7.18
319,culaman,64,PH,1538646052,83,5.96,125.66,81.33,3.83
320,rosas,92,CO,1538646053,95,2.26,-76.74,55.41,2.15
321,deputatskiy,36,RU,1538646053,73,69.3,139.9,16.44,2.71
322,rongcheng,0,CN,1538646053,73,37.16,122.42,68.19,8.75
323,stromness,75,CA,1538643600,88,42.87,-79.55,73.04,18.34
324,keti bandar,0,PK,1538646053,95,24.14,67.45,82.5,9.75
325,waddan,44,LY,1538646054,48,29.16,16.14,79.08,4.5
326,mega,20,ET,1538646054,62,4.06,38.32,71.97,8.41
327,santa maria,75,BR,1538643600,93,-29.69,-53.81,53.6,2.71
328,emerald,76,AU,1538646056,35,-23.53,148.16,74.76,3.6
329,matara,64,PE,1538646056,100,-13.74,-72.9,32.82,1.92
330,belmonte,0,PT,1538645921,40,40.36,-7.35,64.77,4.27
331,luba,68,PH,1538646056,88,17.32,120.7,74.76,4.16
332,saint-michel-des-saints,76,CA,1538646013,94,46.68,-73.92,50.73,11.77
333,braganca,0,BR,1538646057,88,-1.05,-46.77,75.48,5.73
334,el seibo,88,DO,1538646057,97,18.76,-69.04,73.14,2.59
335,sain alto,0,MX,1538646057,84,23.58,-103.25,48.93,4.38
336,malbug,75,PH,1538643600,79,9.73,123.34,86.0,6.93
337,padang,24,ID,1538646058,100,-0.92,100.36,82.59,3.49
338,torbay,20,CA,1538643600,87,47.66,-52.73,44.6,14.99
339,santiago del estero,88,AR,1538646058,73,-27.8,-64.26,60.36,4.61
340,mattru,88,SL,1538646059,98,7.62,-11.83,78.27,3.71
341,christchurch,32,NZ,1538643600,62,-43.53,172.64,55.4,3.36
342,qaqortoq,75,GL,1538643000,63,60.72,-46.03,30.2,13.22
343,kiama,90,AU,1538643600,100,-34.67,150.86,55.4,13.87
344,ahualulco,75,MX,1538643180,82,22.4,-101.17,60.8,14.99
345,zhigansk,92,RU,1538646060,100,66.77,123.37,34.71,6.73
346,sungaipenuh,24,ID,1538646060,76,-2.08,101.38,76.56,1.59
347,adre,8,TD,1538646060,72,13.47,22.2,84.84,4.72
348,matagami,44,NG,1538646061,93,9.67,8.4,77.46,4.5
349,tashla,20,RU,1538643600,59,53.71,49.75,64.4,11.18
350,komsomolskoye,92,UA,1538646061,88,45.02,34.02,55.14,10.09
351,waipawa,12,NZ,1538646061,69,-39.94,176.59,53.79,9.64
352,katsuura,75,JP,1538643600,93,33.93,134.5,68.0,5.82
353,smithers,1,CA,1538643600,73,54.78,-127.17,24.8,2.24
354,luneville,0,FR,1538645400,62,48.6,6.5,57.2,8.05
355,moose factory,90,CA,1538643780,93,51.26,-80.61,53.6,28.86
356,norman wells,75,CA,1538643600,63,65.28,-126.83,26.6,14.99
357,husavik,24,CA,1538646063,100,50.56,-96.99,30.75,9.53
358,behbahan,0,IR,1538643600,8,30.59,50.24,100.4,6.93
359,virginia beach,1,US,1538644920,100,36.85,-75.98,72.32,2.71
360,lamar,90,US,1538643180,48,38.09,-102.62,53.96,17.22
361,mount gambier,0,AU,1538646002,63,-37.83,140.78,51.18,7.4
362,ribeira grande,20,PT,1538643600,78,38.52,-28.7,71.6,3.36
363,mumbwa,0,ZM,1538646065,26,-14.99,27.06,88.98,11.1
364,anadyr,75,RU,1538643600,81,64.73,177.51,48.2,11.18
365,tsabong,0,BW,1538646065,23,-26.02,22.4,70.8,12.44
366,mantua,0,IT,1538644800,49,45.16,10.79,69.8,4.7
367,paamiut,68,GL,1538646066,100,61.99,-49.67,35.34,3.38
368,mapiripan,44,CO,1538646066,99,2.89,-72.13,69.99,3.71
369,caronport,24,CA,1538646066,81,50.46,-105.81,22.74,6.4
370,san roque,92,EC,1538646067,100,0.3,-78.23,46.77,1.92
371,zaqatala,40,AZ,1538643600,64,41.63,46.65,75.2,2.24
372,mount isa,0,AU,1538643600,23,-20.73,139.49,86.0,11.41
373,kamaishi,75,JP,1538643600,77,39.28,141.86,60.8,2.24
374,itarema,92,BR,1538646068,88,-2.92,-39.92,76.56,11.21
375,atar,0,MR,1538643600,28,20.52,-13.05,91.4,13.87
376,turukhansk,92,RU,1538646068,94,65.8,87.96,37.32,20.83
377,petrovskaya,40,RU,1538643600,67,45.43,37.96,62.6,20.13
378,bathsheba,40,BB,1538643600,83,13.22,-59.52,80.6,11.41
379,honningsvag,75,NO,1538643000,100,70.98,25.97,39.2,10.29
380,dutse,12,NG,1538646069,60,11.76,9.34,90.69,7.74
381,linkoping,0,SE,1538644800,87,58.41,15.62,42.8,3.36
382,verkhnyaya inta,76,RU,1538646070,82,65.99,60.32,45.51,5.28
383,plymouth,90,GB,1538644800,93,50.37,-4.14,53.6,13.87
384,lavrentiya,92,RU,1538646070,88,65.58,-170.99,46.86,21.83
385,ulverstone,24,AU,1538646071,79,-41.16,146.17,48.12,5.17
386,gladstone,44,AU,1538646071,73,-23.84,151.26,67.38,7.4
387,calw,40,DE,1538644800,100,48.72,8.74,55.4,2.24
388,xai-xai,92,MZ,1538646071,100,-25.04,33.64,65.04,24.18
389,seoul,0,KR,1538643600,49,37.57,126.98,73.4,5.82
390,quzhou,0,CN,1538646072,57,28.97,118.86,70.62,9.64
391,baykit,32,RU,1538646072,65,61.68,96.39,37.05,5.84
392,sao filipe,0,CV,1538646073,96,14.9,-24.5,79.53,11.21
393,yerbogachen,48,RU,1538646073,52,61.28,108.01,38.67,6.4
394,gushikawa,90,JP,1538643600,92,26.35,127.87,78.8,42.5
395,santa luzia,0,BR,1538643600,77,-19.77,-43.85,73.4,4.7
396,banff,76,CA,1538645898,91,51.18,-115.57,19.86,1.7
397,pacifica,40,US,1538644200,80,37.61,-122.49,64.94,6.93
398,mandalgovi,24,MN,1538646075,56,45.76,106.27,45.78,20.27
399,bogo,0,CM,1538643600,70,10.74,14.61,86.0,6.93
400,palana,92,RU,1538646075,87,59.08,159.95,39.75,5.95
401,mazamari,44,PE,1538646075,95,-11.33,-74.53,63.33,1.7
402,keita,75,NG,1538643600,88,7.1,3.65,80.6,2.24
403,grand-santi,0,GF,1538646076,80,4.27,-54.38,77.91,3.94
404,kadnikov,92,RU,1538646077,100,59.5,40.34,44.43,13.22
405,haines junction,48,CA,1538646077,89,60.75,-137.51,19.05,2.15
406,cotonou,40,BJ,1538643600,79,6.37,2.43,84.2,11.41
407,kasese,68,UG,1538646077,90,0.17,30.09,74.58,1.36
408,litovko,0,RU,1538646077,57,49.24,135.18,54.87,4.61
409,mayumba,64,GA,1538646078,94,-3.44,10.65,77.73,9.19
410,japura,32,ID,1538646078,86,-0.42,102.29,82.14,1.7
411,sinegorye,76,RU,1538646078,94,62.09,150.53,19.14,2.04
412,ikalamavony,0,MG,1538646078,35,-21.17,46.6,79.89,3.38
413,kutum,0,SD,1538646079,30,14.2,24.66,90.96,8.63
414,shasta lake,90,US,1538643240,89,40.68,-122.36,66.02,6.93
415,itoman,75,JP,1538643600,83,26.12,127.67,78.8,31.09
416,comodoro rivadavia,0,AR,1538643600,90,-45.87,-67.48,46.4,5.82
417,madhoganj,0,IN,1538646080,59,27.12,80.15,88.26,5.28
418,gayny,92,RU,1538646080,100,60.3,54.33,49.74,10.31
419,peachtree city,1,US,1538643360,96,33.4,-84.6,68.54,2.37
420,kloulklubed,75,PW,1538643000,78,7.04,134.26,82.4,3.36
421,vila velha,20,BR,1538643600,78,-3.71,-38.6,78.8,13.87
422,tilichiki,44,RU,1538646081,90,60.47,166.1,43.35,10.54
423,dingle,24,PH,1538646081,70,11.0,122.67,83.58,5.73
424,amurzet,0,CN,1538646081,62,47.69,131.09,59.28,7.96
425,zwedru,64,LR,1538646082,100,6.07,-8.13,76.29,6.29
426,quatre cocos,40,MU,1538643600,54,-20.21,57.76,78.8,13.87
427,nurota,0,UZ,1538643600,13,40.56,65.69,86.0,4.7
428,el vigia,0,MX,1538646082,84,26.85,-109.72,79.71,7.07
429,vanimo,12,PG,1538646083,100,-2.67,141.3,85.47,9.64
430,saint-joseph,0,FR,1538645400,28,43.56,6.97,80.6,5.82
431,san mateo del mar,0,MX,1538646083,95,16.21,-94.98,81.51,27.09
432,iquique,75,CL,1538643600,72,-20.22,-70.14,62.6,3.36
433,nouadhibou,0,MR,1538643600,50,20.93,-17.03,78.8,14.99
434,asosa,8,ET,1538646084,79,10.07,34.53,79.26,4.16
435,half moon bay,1,US,1538644200,87,37.46,-122.43,64.94,8.05
436,margate,75,AU,1538643600,62,-43.03,147.26,51.8,6.93
437,borodyanka,75,UA,1538643600,53,50.64,29.92,51.8,24.61
438,north bend,75,US,1538644500,89,43.41,-124.22,50.0,4.7
439,hay river,75,CA,1538643600,92,60.82,-115.79,19.4,3.36
440,lisakovsk,44,KZ,1538646085,42,52.55,62.49,67.29,7.63
441,naustdal,75,NO,1538644800,100,61.51,5.72,42.8,4.7
442,ekhabi,0,RU,1538646086,63,53.51,142.97,50.37,10.54
443,bundaberg,0,AU,1538645821,96,-24.87,152.35,70.17,8.97
444,maningrida,0,AU,1538646086,75,-12.05,134.23,80.34,11.21
445,high level,90,CA,1538643600,62,58.52,-117.13,23.0,3.36
446,mujiayingzi,0,CN,1538646087,28,42.12,118.78,64.23,6.73
447,linxia,48,CN,1538645919,55,35.6,103.21,54.69,3.49
448,cabo san lucas,0,MX,1538645824,100,22.89,-109.91,83.31,9.19
449,cidreira,20,BR,1538646087,96,-30.17,-50.22,55.59,3.6
450,xaltianguis,40,MX,1538642580,94,17.1,-99.71,78.8,1.92
451,amtala,8,BD,1538646088,68,24.85,90.79,91.05,4.38
452,batagay,80,RU,1538646088,87,67.65,134.64,27.69,2.93
453,koumac,32,NC,1538646088,77,-20.56,164.28,71.52,3.71
454,bethel,20,US,1538643180,95,60.79,-161.76,44.06,9.17
455,jumla,76,NP,1538646089,82,29.28,82.18,43.44,0.92
456,simplicio mendes,8,BR,1538646090,48,-7.85,-41.91,77.37,11.88
457,prince rupert,1,CA,1538643600,86,54.32,-130.32,39.2,8.05
458,noyabrsk,68,RU,1538645978,87,63.2,75.45,47.76,10.2
459,yar-sale,44,RU,1538646090,100,66.83,70.83,43.44,14.34
460,champerico,20,MX,1538646090,89,16.38,-93.6,68.82,3.27
461,pokaran,0,IN,1538646091,20,26.93,71.92,101.04,10.65
462,mbandaka,32,CD,1538646091,78,0.05,18.26,82.23,3.27
463,gucheng,0,CN,1538646091,60,32.27,111.65,74.31,2.37
464,kodinar,0,IN,1538646092,39,20.79,70.7,98.07,5.17
465,lahaina,1,US,1538643360,86,20.87,-156.68,75.02,4.7
466,olinda,75,EC,1538643600,83,-2.03,-79.75,71.6,8.05
467,mora,80,SE,1538646093,79,61.01,14.54,37.86,3.27
468,kaitangata,92,NZ,1538646093,95,-46.28,169.85,42.36,4.38
469,byron bay,88,AU,1538643600,68,-28.65,153.62,69.8,14.99
470,esil,12,KZ,1538646093,43,51.96,66.41,71.61,15.12
471,aykhal,88,RU,1538646093,76,65.95,111.51,30.39,6.06
472,vostok,0,RU,1538646094,83,46.45,135.83,49.38,2.04
473,havelock,1,US,1538643480,78,34.88,-76.9,75.02,5.82
474,miracema do tocantins,32,BR,1538646094,88,-9.56,-48.4,72.15,3.38
475,coquimbo,0,CL,1538643600,93,-29.95,-71.34,51.8,2.24
476,sumbe,0,AO,1538646095,85,-11.2,13.84,76.2,4.38
477,hokitika,88,NZ,1538646095,100,-42.72,170.96,52.17,9.31
478,nishihara,90,JP,1538644680,72,35.74,139.53,69.8,4.7
479,sironj,32,IN,1538646095,43,24.1,77.69,91.59,5.28
480,ouargaye,8,BF,1538645946,100,11.5,0.06,81.51,4.61
481,magnor,92,SE,1538646096,84,59.95,12.2,39.3,3.49
482,rtishchevo,80,RU,1538646096,84,52.26,43.79,51.18,15.9
483,dunedin,92,NZ,1538645992,100,-45.87,170.5,40.92,4.38
484,carroll,48,AU,1538643600,82,-30.99,150.44,59.0,8.05
485,takoradi,56,GH,1538646097,92,4.89,-1.75,78.27,5.5
486,picayune,40,US,1538644500,90,30.53,-89.68,78.98,2.48
487,tommot,92,RU,1538646097,93,58.97,126.27,36.33,2.59
488,shimanovsk,0,RU,1538646097,33,52.0,127.67,65.85,8.08
489,zabol,0,IR,1538643600,14,31.03,61.49,93.2,16.11
490,namibe,24,AO,1538646098,100,-15.19,12.15,67.2,1.14
491,kampene,8,CD,1538646098,53,-3.59,26.67,88.53,2.93
492,biak,48,ID,1538646098,82,-0.91,122.88,81.69,5.39
493,itupiranga,0,BR,1538643600,88,-5.13,-49.33,75.2,3.36
494,prestea,24,GH,1538646099,84,5.43,-2.14,81.33,3.94
495,katsina,8,NG,1538646099,81,12.99,7.6,84.39,7.29
496,te anau,92,NZ,1538646099,100,-45.41,167.72,38.13,2.37
497,lokosovo,44,RU,1538646100,69,61.13,74.84,53.7,10.09
498,mecca,64,SA,1538646100,31,21.43,39.83,99.24,6.17
499,makaha,1,US,1538643420,97,21.47,-158.22,78.98,13.0
500,syracuse,75,US,1538643780,100,43.05,-76.15,59.0,5.82
501,barinitas,48,VE,1538646101,81,8.76,-70.41,65.13,1.36
502,port blair,76,IN,1538645880,100,11.67,92.75,85.47,9.86
503,broken hill,0,AU,1538646101,59,-31.97,141.45,59.37,15.01
504,mwene-ditu,48,CD,1538646102,82,-7.01,23.45,83.13,4.61
505,alugan,68,PH,1538646102,100,12.22,125.48,80.79,2.15
506,guadalajara,0,ES,1538645400,39,40.63,-3.16,68.0,1.12
507,billings,24,US,1538646103,85,45.79,-108.5,23.91,1.59
508,bilibino,92,RU,1538646103,98,68.06,166.44,34.53,2.37
509,upata,12,VE,1538646103,87,8.02,-62.41,73.32,6.17
510,sioux lookout,40,CA,1538644020,86,50.1,-91.92,32.0,13.87
511,denison,1,US,1538644500,88,33.76,-96.54,74.3,8.05
512,nioro,0,GM,1538646105,92,13.79,-15.05,80.43,7.07
513,gaurela,8,IN,1538646106,50,22.75,81.9,90.6,4.16
514,priverno,75,IT,1538644800,53,41.47,13.18,73.4,4.7
515,liverpool,75,GB,1538644800,82,53.41,-2.98,59.0,10.29
516,erenhot,80,CN,1538646107,22,43.65,111.97,70.53,19.26
517,sakaiminato,90,JP,1538643600,60,35.55,133.23,71.6,18.34
518,basse,75,DE,1538644800,87,52.55,9.51,53.6,11.41
519,miranda,75,CO,1538643600,100,3.25,-76.23,66.2,5.82
520,villa de san francisco,75,HN,1538643600,100,14.18,-86.95,66.2,4.7
521,kingman,75,US,1538643360,96,35.19,-114.05,71.96,6.93
522,vilhena,36,BR,1538646108,98,-12.74,-60.15,68.82,2.15
523,bara,8,NG,1538646109,73,10.41,10.6,85.47,9.64
524,mangan,24,IN,1538646109,65,27.5,88.54,45.96,1.81
525,xintai,0,CN,1538646109,35,35.91,117.76,75.21,2.59
526,revelstoke,90,CA,1538643600,93,50.99,-118.19,37.4,1.7
527,angoram,64,PG,1538646110,85,-4.06,144.07,81.33,2.37
528,tarko-sale,68,RU,1538646110,93,64.92,77.78,46.59,10.98
529,havre-saint-pierre,90,CA,1538643600,100,50.23,-63.6,46.4,2.93
530,nome,1,US,1538644500,100,30.04,-94.42,77.0,3.94
531,rocha,0,UY,1538646111,73,-34.48,-54.34,44.07,8.97
532,beysehir,0,TR,1538646111,51,37.68,31.72,68.73,4.72
533,tahe,0,CN,1538646111,40,52.34,124.71,61.71,7.63
534,san policarpo,68,PH,1538646111,100,12.18,125.51,80.79,2.15
535,yichang,0,CN,1538646112,61,30.77,111.32,75.75,4.38
